latitude,longitude,uuid,kreis_name,kreis_schluessel,gemeindeverband_name,gemeindeverband_schluessel,gemeinde_name,gemeinde_schluessel,gemeindeteil_name,gemeindeteil_schluessel,strasse_name,strasse_schluessel,hausnummer,hausnummer_zusatz,postleitzahl,art,bezeichnung,traeger_bezeichnung,traeger_art,barrierefrei,oeffnungszeiten,telefon,fax,email,website
54.063668785626163,12.124130015884239,5fd4e7e0-39a7-11e4-8533-0050569b7e95,Rostock,13003,"Rostock, Hansestadt",130030000,"Rostock, Hansestadt",130030000000,Südstadt,0017,Semmelweisstr.,10610,3,,18059,Hallenbad,Schwimmhalle im Schulzentrum Paul Friedrich Scheel,Hansestadt Rostock,öffentlich,,,+49 381 440340,+49 381 4403422,foerderzentrum-p.f.scheel.hro@t-online.de,http://scheel-schule.de/
54.112227798080134,12.102678227006058,00230534-39a7-11e4-bf25-0050569b7e95,Rostock,13003,"Rostock, Hansestadt",130030000,"Rostock, Hansestadt",130030000000,Gehlsdorf,0025,Steuerbordstr.,13380,7,,18147,Hallenbad,Schwimmhalle Gehlsdorf,WIRO GmbH,kommerziell,,"Mo 06:00-10:00,15:00-22:00; Di 15:00-22:00; Mi-Do 06:00-22:00; Fr 09:00-22:00; Sa-So 09:00-20:00",+49 381 6661345,+49 381 66673931,schwimmhalle@sportpark-gehlsdorf.de,http://www.sportpark-gehlsdorf.de/
54.178259310327732,12.076109506611346,70aa5ab2-39a9-11e4-bf27-0050569b7e95,Rostock,13003,"Rostock, Hansestadt",130030000,"Rostock, Hansestadt",130030000000,Seebad Warnemünde,0001,Zur Promenade,13160,2,,18119,Erlebnisbad,a-ja Resort Warnemünde,a-ja Resort und Hotel GmbH,kommerziell,,Mo-So 07:00-22:00,+49 381 202712728,+49 381 202712626,seebad@ajaresorts.de,http://www.seebad.de/
54.085545486649444,12.089481233141386,e144a8fa-399e-11e4-866c-0050569b7e95,Rostock,13003,"Rostock, Hansestadt",130030000,"Rostock, Hansestadt",130030000000,Hansaviertel,0014,Kopernikusstr.,06170,17,,18057,Hallenbad,Hallenschwimmbad „Neptun“,Hansestadt Rostock,öffentlich,1,"Mo 06:00-07:30,18:00-20:00; Di 19:00-22:00; Mi 06:00-07:30,20:00-22:00; Do 12:00-14:00,20:00-22:00; Fr 06:00-07:30,13:00-15:00; Sa 08:00-12:00,14:00-18:00; So 08:00-12:00,13:00-15:00",+49 381 3816850,,,http://www.rostock.de/index.php?id=95&oid=1088
54.178838905451727,12.077896689399903,69f17328-3a5c-11e4-b8f1-0050569b7e95,Rostock,13003,"Rostock, Hansestadt",130030000,"Rostock, Hansestadt",130030000000,Seebad Warnemünde,0001,Seestr.,08520,19,,18119,Erlebnisbad,NEPTUN SPA – Hotel NEPTUN,Hotel NEPTUN Betriebsgesellschaft mbH,kommerziell,,,+49 381 777401,,neptun-spa@hotel-neptun.de,http://www.hotel-neptun.de/spa-wellness.html
54.131386854562287,12.08283666614782,ba9f6d5e-c0dd-11e4-8557-0050569b7e95,Rostock,13003,"Rostock, Hansestadt",130030000,"Rostock, Hansestadt",130030000000,Schmarl,0012,Industriestr.,04010,10,b,18069,Hallenbad,Holiday City Center HCC Rostock,ATOXI Sport GmbH,kommerziell,,"Okt-Apr: Mo-Fr 14:00-24:00; Okt-Apr: Sa 10:00-24:00; Okt-Apr: So 10:00-22:00; Mai-Sep: Mo-Sa 16:00-22:00; Mai-Sep: So 10:00-22:00",+49 381 20760,+49 381 2076302,info@hcc-rostock.de,http://www.hcc-rostock.de/
54.083339216330359,12.152053443090551,6d7fc47e-39a6-11e4-bf24-0050569b7e95,Rostock,13003,"Rostock, Hansestadt",130030000,"Rostock, Hansestadt",130030000000,Stadtmitte,0019,Mühlendamm,07090,36,,18055,Freibad,Fluss- und Sonnenbad Mühlendamm,Lederhexen e.V.,gewerblich-privat,1,"Mai-Sep: Mo-Fr 14:00-19:00; Mai-Sep: Sa-So 11:00-19:00",+49 163 1313720,,,
54.081028491075116,12.171928907481615,db669e96-39aa-11e4-bf28-0050569b7e95,Rostock,13003,"Rostock, Hansestadt",130030000,"Rostock, Hansestadt",130030000000,Brinckmansdorf,0020,Tessiner Str.,08820,103,,18055,Erlebnisbad,AQUA am Schweizer Wald,TRIHOTEL am Schweizer Wald,kommerziell,,"Mo-Fr 12:00-22:00; Sa-So 10:00-22:00",+49 381 65970,+49 381 6597600,info@trihotel.de,http://www.trihotel-rostock.de/wellness/aqua.html
